{
  "type": "FeatureCollection",
  "features": [
    {
      "type": "Feature",
      "geometry": {
        "type": "Point",
        "coordinates": [
          8.6548444,
          49.8734728
        ]
      },
      "properties": {
        "category": "university",
        "name": "TU Darmstadt/Schloss",
        "marker-color": "#ff8040"
      }
    },
    {
      "type": "Feature",
      "geometry": {
        "type": "Point",
        "coordinates": [
          9.8549227,
          51.3494162
        ]
      },
      "properties": {
        "category": "university",
        "name": "Universit\u00e4t Kassel",
        "marker-color": "#ff8040"
      }
    },
    {
      "type": "Feature",
      "geometry": {
        "type": "Point",
        "coordinates": [
          9.1232463,
          51.1173945
        ]
      },
      "properties": {
        "category": "university",
        "name": "Berufsakademie Nordhessen",
        "marker-color": "#ff8040"
      }
    },
    {
      "type": "Feature",
      "geometry": {
        "type": "Point",
        "coordinates": [
          8.6588276,
          49.8755406
        ]
      },
      "properties": {
        "category": "university",
        "name": "Institut f\u00fcr Papierfabrikation und Mechanische Verfahrenstechnik",
        "marker-color": "#ff8040"
      }
    },
    {
      "type": "Feature",
      "geometry": {
        "type": "Point",
        "coordinates": [
          8.658175,
          49.8751166
        ]
      },
      "properties": {
        "category": "university",
        "name": "Institut f\u00fcr Allgemeine P\u00e4dagogik und Berufsp\u00e4dagogik",
        "marker-color": "#ff8040"
      }
    },
    {
      "type": "Feature",
      "geometry": {
        "type": "Point",
        "coordinates": [
          8.6587332,
          49.8752474
        ]
      },
      "properties": {
        "category": "university",
        "name": "Institut f\u00fcr Papierfabrikation und Mechanische Verfahrenstechnik",
        "marker-color": "#ff8040"
      }
    },
    {
      "type": "Feature",
      "geometry": {
        "type": "Point",
        "coordinates": [
          8.6594332,
          49.8754648
        ]
      },
      "properties": {
        "category": "university",
        "name": "Institut f\u00fcr Psychologie",
        "marker-color": "#ff8040"
      }
    },
    {
      "type": "Feature",
      "geometry": {
        "type": "Point",
        "coordinates": [
          8.6552588,
          49.8738057
        ]
      },
      "properties": {
        "category": "university",
        "name": "TU Darmstadt/Schloss",
        "marker-color": "#ff8040"
      }
    },
    {
      "type": "Feature",
      "geometry": {
        "type": "Point",
        "coordinates": [
          8.6401291,
          49.8715465
        ]
      },
      "properties": {
        "category": "university",
        "name": "Hochschulrechenzentrum",
        "marker-color": "#ff8040"
      }
    },
    {
      "type": "Feature",
      "geometry": {
        "type": "Point",
        "coordinates": [
          8.6316543,
          49.873832
        ]
      },
      "properties": {
        "category": "university",
        "name": "Studienkolleg f\u00fcr ausl\u00e4ndische Studierende",
        "marker-color": "#ff8040"
      }
    },
    {
      "type": "Feature",
      "geometry": {
        "type": "Point",
        "coordinates": [
          8.6574065,
          49.8772519
        ]
      },
      "properties": {
        "category": "university",
        "name": "E24",
        "marker-color": "#ff8040"
      }
    },
    {
      "type": "Feature",
      "geometry": {
        "type": "Point",
        "coordinates": [
          8.6802909,
          49.8694902
        ]
      },
      "properties": {
        "category": "university",
        "name": "Institut f\u00fcr Botanik/Zoologie",
        "marker-color": "#ff8040"
      }
    },
    {
      "type": "Feature",
      "geometry": {
        "type": "Point",
        "coordinates": [
          8.6409529,
          49.8669582
        ]
      },
      "properties": {
        "category": "university",
        "name": "FB Elektrotechnik und Informationstechnik",
        "marker-color": "#ff8040"
      }
    },
    {
      "type": "Feature",
      "geometry": {
        "type": "Point",
        "coordinates": [
          8.8105601,
          50.8100797
        ]
      },
      "properties": {
        "category": "university",
        "name": "HRZ",
        "marker-color": "#ff8040"
      }
    },
    {
      "type": "Feature",
      "geometry": {
        "type": "Point",
        "coordinates": [
          8.8106344,
          50.8094125
        ]
      },
      "properties": {
        "category": "university",
        "name": "Fachbereich Mathematik und Informatik",
        "marker-color": "#ff8040"
      }
    },
    {
      "type": "Feature",
      "geometry": {
        "type": "Point",
        "coordinates": [
          8.8078907,
          50.8112092
        ]
      },
      "properties": {
        "category": "university",
        "name": "Fachbereich Chemie",
        "marker-color": "#ff8040"
      }
    },
    {
      "type": "Feature",
      "geometry": {
        "type": "Point",
        "coordinates": [
          8.8092932,
          50.8116192
        ]
      },
      "properties": {
        "category": "university",
        "name": "Biomedizinisches Forschungszentrum",
        "marker-color": "#ff8040"
      }
    },
    {
      "type": "Feature",
      "geometry": {
        "type": "Point",
        "coordinates": [
          8.8086797,
          50.8072874
        ]
      },
      "properties": {
        "category": "university",
        "name": "Fachbereich Biologie",
        "marker-color": "#ff8040"
      }
    },
    {
      "type": "Feature",
      "geometry": {
        "type": "Point",
        "coordinates": [
          8.6586388,
          49.8757121
        ]
      },
      "properties": {
        "category": "university",
        "name": "Institut f\u00fcr Druckmaschinen und Druckverfahren",
        "marker-color": "#ff8040"
      }
    },
    {
      "type": "Feature",
      "geometry": {
        "type": "Point",
        "coordinates": [
          8.6926844,
          50.5768333
        ]
      },
      "properties": {
        "category": "university",
        "name": "Fachbereich Psychologie",
        "marker-color": "#ff8040"
      }
    },
    {
      "type": "Feature",
      "geometry": {
        "type": "Point",
        "coordinates": [
          8.7767136,
          50.8253239
        ]
      },
      "properties": {
        "category": "university",
        "name": "Studentendorf",
        "marker-color": "#ff8040"
      }
    },
    {
      "type": "Feature",
      "geometry": {
        "type": "Point",
        "coordinates": [
          8.8091789,
          50.8119479
        ]
      },
      "properties": {
        "category": "university",
        "name": "Institut f\u00fcr Virologie",
        "marker-color": "#ff8040"
      }
    },
    {
      "type": "Feature",
      "geometry": {
        "type": "Point",
        "coordinates": [
          8.671943,
          50.5697146
        ]
      },
      "properties": {
        "category": "university",
        "name": "Pflanzenversuchsanlage",
        "marker-color": "#ff8040"
      }
    },
    {
      "type": "Feature",
      "geometry": {
        "type": "Point",
        "coordinates": [
          8.7702482,
          50.8048061
        ]
      },
      "properties": {
        "category": "university",
        "name": "Fachbereich Psychologie",
        "marker-color": "#ff8040"
      }
    },
    {
      "type": "Feature",
      "geometry": {
        "type": "Point",
        "coordinates": [
          8.6565346,
          49.8776738
        ]
      },
      "properties": {
        "category": "university",
        "name": "Chemische Technologie I",
        "marker-color": "#ff8040"
      }
    },
    {
      "type": "Feature",
      "geometry": {
        "type": "Point",
        "coordinates": [
          8.656253,
          49.8780638
        ]
      },
      "properties": {
        "category": "university",
        "name": "Chemische Technologie I",
        "marker-color": "#ff8040"
      }
    },
    {
      "type": "Feature",
      "geometry": {
        "type": "Point",
        "coordinates": [
          8.6558635,
          49.8785165
        ]
      },
      "properties": {
        "category": "university",
        "name": "Technikum",
        "marker-color": "#ff8040"
      }
    },
    {
      "type": "Feature",
      "geometry": {
        "type": "Point",
        "coordinates": [
          8.6563774,
          49.8695864
        ]
      },
      "properties": {
        "category": "university",
        "name": "Institut f\u00fcr Datentechnik",
        "marker-color": "#ff8040"
      }
    },
    {
      "type": "Feature",
      "geometry": {
        "type": "Point",
        "coordinates": [
          8.6398204,
          49.8669825
        ]
      },
      "properties": {
        "category": "university",
        "name": "Patentinformationszentrum",
        "marker-color": "#ff8040"
      }
    },
    {
      "type": "Feature",
      "geometry": {
        "type": "Point",
        "coordinates": [
          8.6350905,
          49.8725375
        ]
      },
      "properties": {
        "category": "university",
        "name": "CASED",
        "marker-color": "#ff8040"
      }
    },
    {
      "type": "Feature",
      "geometry": {
        "type": "Point",
        "coordinates": [
          8.7803607,
          50.8168178
        ]
      },
      "properties": {
        "category": "university",
        "name": "Evangelisches Studentenwohnheim",
        "marker-color": "#ff8040"
      }
    },
    {
      "type": "Feature",
      "geometry": {
        "type": "Point",
        "coordinates": [
          8.7639282,
          50.8034889
        ]
      },
      "properties": {
        "category": "university",
        "name": "Archivschule Marburg",
        "marker-color": "#ff8040"
      }
    },
    {
      "type": "Feature",
      "geometry": {
        "type": "Point",
        "coordinates": [
          8.6581041,
          50.1253343
        ]
      },
      "properties": {
        "category": "university",
        "name": "Biologische Institute",
        "marker-color": "#ff8040"
      }
    },
    {
      "type": "Feature",
      "geometry": {
        "type": "Point",
        "coordinates": [
          8.8103002,
          50.8091838
        ]
      },
      "properties": {
        "category": "university",
        "name": "WZMW / Struktur- & Technologie- Forschungslabor",
        "marker-color": "#ff8040"
      }
    },
    {
      "type": "Feature",
      "geometry": {
        "type": "Point",
        "coordinates": [
          8.521087,
          50.5513922
        ]
      },
      "properties": {
        "category": "university",
        "name": "Technische Hochschule Mittelhessen (A1)",
        "marker-color": "#ff8040"
      }
    },
    {
      "type": "Feature",
      "geometry": {
        "type": "Point",
        "coordinates": [
          8.6564852,
          50.1152998
        ]
      },
      "properties": {
        "category": "university",
        "name": "Institut f\u00fcr Geschichte der Arabische-Islamischen Wissenschaften",
        "marker-color": "#ff8040"
      }
    },
    {
      "type": "Feature",
      "geometry": {
        "type": "Point",
        "coordinates": [
          8.6553512,
          50.5663077
        ]
      },
      "properties": {
        "category": "university",
        "name": "JLU Fachbereich Medizin - GRIPS",
        "marker-color": "#ff8040"
      }
    },
    {
      "type": "Feature",
      "geometry": {
        "type": "Point",
        "coordinates": [
          8.6461244,
          50.5989848
        ]
      },
      "properties": {
        "category": "university",
        "name": "Oberer Hardthof",
        "marker-color": "#ff8040"
      }
    },
    {
      "type": "Feature",
      "geometry": {
        "type": "Point",
        "coordinates": [
          7.9613317,
          49.9844127
        ]
      },
      "properties": {
        "category": "university",
        "name": "Hochschule GEISENHEIM University",
        "marker-color": "#ff8040"
      }
    },
    {
      "type": "Feature",
      "geometry": {
        "type": "Point",
        "coordinates": [
          9.4779124,
          51.3125562
        ]
      },
      "properties": {
        "category": "university",
        "name": "Fraunhofer IWES Kassel",
        "marker-color": "#ff8040"
      }
    },
    {
      "type": "Feature",
      "geometry": {
        "type": "Point",
        "coordinates": [
          9.7305947,
          50.9914713
        ]
      },
      "properties": {
        "category": "university",
        "name": "Hessische Hochschule f\u00fcr Finanzen und Rechtspflege",
        "marker-color": "#ff8040"
      }
    },
    {
      "type": "Feature",
      "geometry": {
        "type": "Point",
        "coordinates": [
          8.919272,
          50.8266398
        ]
      },
      "properties": {
        "category": "university",
        "name": "Bieneninstitut Kirchhain",
        "marker-color": "#ff8040"
      }
    },
    {
      "type": "Feature",
      "geometry": {
        "type": "Point",
        "coordinates": [
          9.6867056,
          50.5652015
        ]
      },
      "properties": {
        "category": "university",
        "name": "Hochschule Fulda",
        "marker-color": "#ff8040"
      }
    },
    {
      "type": "Feature",
      "geometry": {
        "type": "Point",
        "coordinates": [
          8.6797946,
          49.861551
        ]
      },
      "properties": {
        "category": "university",
        "name": "AStA",
        "marker-color": "#ff8040"
      }
    },
    {
      "type": "Feature",
      "geometry": {
        "type": "Point",
        "coordinates": [
          8.634083,
          50.1735161
        ]
      },
      "properties": {
        "category": "university",
        "name": "Geowissenschaften Uni Frankfurt",
        "marker-color": "#ff8040"
      }
    },
    {
      "type": "Feature",
      "geometry": {
        "type": "Point",
        "coordinates": [
          8.6317162,
          50.1726334
        ]
      },
      "properties": {
        "category": "university",
        "name": "Chemie Uni Frankfurt",
        "marker-color": "#ff8040"
      }
    },
    {
      "type": "Feature",
      "geometry": {
        "type": "Point",
        "coordinates": [
          8.6280216,
          50.1726771
        ]
      },
      "properties": {
        "category": "university",
        "name": "Biologie Uni Frankfurt",
        "marker-color": "#ff8040"
      }
    },
    {
      "type": "Feature",
      "geometry": {
        "type": "Point",
        "coordinates": [
          8.6807537,
          50.5855207
        ]
      },
      "properties": {
        "category": "university",
        "name": "Technische Hochschule Mittelhessen",
        "marker-color": "#ff8040"
      }
    },
    {
      "type": "Feature",
      "geometry": {
        "type": "Point",
        "coordinates": [
          8.632141,
          50.1743443
        ]
      },
      "properties": {
        "category": "university",
        "name": "Physik Uni Frankfurt",
        "marker-color": "#ff8040"
      }
    },
    {
      "type": "Feature",
      "geometry": {
        "type": "Point",
        "coordinates": [
          8.7714492,
          50.8145794
        ]
      },
      "properties": {
        "category": "university",
        "name": "Centrum f\u00fcr Nah- und Mittelost-Studien (CNMS)",
        "marker-color": "#ff8040"
      }
    },
    {
      "type": "Feature",
      "geometry": {
        "type": "Point",
        "coordinates": [
          8.7711081,
          50.8074643
        ]
      },
      "properties": {
        "category": "university",
        "name": "Philipps-Universit\u00e4t",
        "marker-color": "#ff8040"
      }
    },
    {
      "type": "Feature",
      "geometry": {
        "type": "Point",
        "coordinates": [
          8.6534812,
          49.8722734
        ]
      },
      "properties": {
        "category": "university",
        "name": "",
        "marker-color": "#ff8040"
      }
    },
    {
      "type": "Feature",
      "geometry": {
        "type": "Point",
        "coordinates": [
          8.2477733,
          50.0711404
        ]
      },
      "properties": {
        "category": "university",
        "name": "EBS Law School",
        "marker-color": "#ff8040"
      }
    },
    {
      "type": "Feature",
      "geometry": {
        "type": "Point",
        "coordinates": [
          8.6279846,
          50.1716692
        ]
      },
      "properties": {
        "category": "university",
        "name": "Didaktik der Biowissenschaften Goethe Universit\u00e4t Frankfurt",
        "marker-color": "#ff8040"
      }
    },
    {
      "type": "Feature",
      "geometry": {
        "type": "Point",
        "coordinates": [
          8.6295895,
          50.1724122
        ]
      },
      "properties": {
        "category": "university",
        "name": "Institut f\u00fcr Molekulare Biowissenschaften",
        "marker-color": "#ff8040"
      }
    },
    {
      "type": "Feature",
      "geometry": {
        "type": "Point",
        "coordinates": [
          8.7697496,
          50.8049291
        ]
      },
      "properties": {
        "category": "university",
        "name": "Institut f\u00fcr Bildende Kunst",
        "marker-color": "#ff8040"
      }
    },
    {
      "type": "Feature",
      "geometry": {
        "type": "Point",
        "coordinates": [
          8.7699161,
          50.804643
        ]
      },
      "properties": {
        "category": "university",
        "name": "Psychotherapie Ambulanz Marburg",
        "marker-color": "#ff8040"
      }
    },
    {
      "type": "Feature",
      "geometry": {
        "type": "Point",
        "coordinates": [
          8.6304925,
          50.17262
        ]
      },
      "properties": {
        "category": "university",
        "name": "HRZ Service Center Riedberg",
        "marker-color": "#ff8040"
      }
    },
    {
      "type": "Feature",
      "geometry": {
        "type": "Point",
        "coordinates": [
          8.6307202,
          50.1727533
        ]
      },
      "properties": {
        "category": "university",
        "name": "TGM Technisches Geb\u00e4udemanagement",
        "marker-color": "#ff8040"
      }
    },
    {
      "type": "Feature",
      "geometry": {
        "type": "Point",
        "coordinates": [
          8.6302819,
          50.1728329
        ]
      },
      "properties": {
        "category": "university",
        "name": "TGM Werkst\u00e4tten",
        "marker-color": "#ff8040"
      }
    },
    {
      "type": "Feature",
      "geometry": {
        "type": "Point",
        "coordinates": [
          9.5311371,
          51.3152872
        ]
      },
      "properties": {
        "category": "university",
        "name": "Universit\u00e4t Kassel - Fachgebiet Abfall - Technikum",
        "marker-color": "#ff8040"
      }
    },
    {
      "type": "Feature",
      "geometry": {
        "type": "Point",
        "coordinates": [
          9.5216714,
          51.324327
        ]
      },
      "properties": {
        "category": "university",
        "name": "Universit\u00e4t Kassel - Fachgebiet Siedlungswasserwirtschaft Labor",
        "marker-color": "#ff8040"
      }
    },
    {
      "type": "Feature",
      "geometry": {
        "type": "Point",
        "coordinates": [
          8.6537322,
          50.6016383
        ]
      },
      "properties": {
        "category": "university",
        "name": "Landwirtschaftliche Lehr- und Forschungseinrichtung \"Weilburger Grenze\"",
        "marker-color": "#ff8040"
      }
    },
    {
      "type": "Feature",
      "geometry": {
        "type": "Point",
        "coordinates": [
          8.5016345,
          49.9409909
        ]
      },
      "properties": {
        "category": "university",
        "name": "Landwirtschaftliche Lehr- und Forschungseinrichtung Gro\u00df-Gerau",
        "marker-color": "#ff8040"
      }
    },
    {
      "type": "Feature",
      "geometry": {
        "type": "Point",
        "coordinates": [
          8.2456998,
          50.3966555
        ]
      },
      "properties": {
        "category": "university",
        "name": "Landwirtschaftliche Lehr- und Forschungseinrichtung Gladbacher Hof",
        "marker-color": "#ff8040"
      }
    },
    {
      "type": "Feature",
      "geometry": {
        "type": "Point",
        "coordinates": [
          8.693198,
          50.5364244
        ]
      },
      "properties": {
        "category": "university",
        "name": "Landwirtschaftliche Lehr- und Forschungseinrichtung \"Am Rittergut\"",
        "marker-color": "#ff8040"
      }
    },
    {
      "type": "Feature",
      "geometry": {
        "type": "Point",
        "coordinates": [
          9.5217233,
          51.3243232
        ]
      },
      "properties": {
        "category": "university",
        "name": "SiWaWi-Labor",
        "marker-color": "#ff8040"
      }
    },
    {
      "type": "Feature",
      "geometry": {
        "type": "Point",
        "coordinates": [
          8.7689708,
          50.8109126
        ]
      },
      "properties": {
        "category": "university",
        "name": "AG Experimentelle Halbleiterphysik Prof. M. Koch",
        "marker-color": "#ff8040"
      }
    },
    {
      "type": "Feature",
      "geometry": {
        "type": "Point",
        "coordinates": [
          8.8112509,
          50.8092677
        ]
      },
      "properties": {
        "category": "university",
        "name": "AG Experimentelle Halbleiterphysik Prof. M. Koch Ebene C6",
        "marker-color": "#ff8040"
      }
    },
    {
      "type": "Feature",
      "geometry": {
        "type": "Point",
        "coordinates": [
          8.7727085,
          50.8146842
        ]
      },
      "properties": {
        "category": "university",
        "name": "Zentrum f\u00fcr Lehrerbildung an der Philipps-Universit\u00e4t Marburg",
        "marker-color": "#ff8040"
      }
    },
    {
      "type": "Feature",
      "geometry": {
        "type": "Point",
        "coordinates": [
          8.6951097,
          50.571306
        ]
      },
      "properties": {
        "category": "university",
        "name": "Zentrum f\u00fcr fremdsprachliche und berufsfeldorientierte Kompetenzen",
        "marker-color": "#ff8040"
      }
    },
    {
      "type": "Feature",
      "geometry": {
        "type": "Point",
        "coordinates": [
          8.6782302,
          50.5875952
        ]
      },
      "properties": {
        "category": "university",
        "name": "Zentrum f\u00fcr internationale Entwicklungs- und Umweltforschung (ZEU)",
        "marker-color": "#ff8040"
      }
    },
    {
      "type": "Feature",
      "geometry": {
        "type": "Point",
        "coordinates": [
          8.6932729,
          50.5768257
        ]
      },
      "properties": {
        "category": "university",
        "name": "Gie\u00dfener Zentrum \u00d6stliches Europa (GiZo)",
        "marker-color": "#ff8040"
      }
    },
    {
      "type": "Feature",
      "geometry": {
        "type": "Point",
        "coordinates": [
          8.6750682,
          50.568265
        ]
      },
      "properties": {
        "category": "university",
        "name": "Laboratorium f\u00fcr Materialforschung (LaMa)",
        "marker-color": "#ff8040"
      }
    },
    {
      "type": "Feature",
      "geometry": {
        "type": "Point",
        "coordinates": [
          8.6937012,
          50.5811952
        ]
      },
      "properties": {
        "category": "university",
        "name": "Servicezentrum Studium und Pr\u00fcfungen FB02",
        "marker-color": "#ff8040"
      }
    },
    {
      "type": "Feature",
      "geometry": {
        "type": "Point",
        "coordinates": [
          8.6594956,
          50.5740591
        ]
      },
      "properties": {
        "category": "university",
        "name": "Pr\u00fcfungsamt FB 10",
        "marker-color": "#ff8040"
      }
    },
    {
      "type": "Feature",
      "geometry": {
        "type": "Point",
        "coordinates": [
          8.6651294,
          50.5688952
        ]
      },
      "properties": {
        "category": "university",
        "name": "Hessische Lehrkr\u00e4fteakademie - Pr\u00fcfungsstelle Gie\u00dfen",
        "marker-color": "#ff8040"
      }
    },
    {
      "type": "Feature",
      "geometry": {
        "type": "Point",
        "coordinates": [
          8.7753775,
          50.8127673
        ]
      },
      "properties": {
        "category": "university",
        "name": "Forschungsstelle f\u00fcr Personalschriften",
        "marker-color": "#ff8040"
      }
    },
    {
      "type": "Feature",
      "geometry": {
        "type": "Point",
        "coordinates": [
          8.6792443,
          50.5843154
        ]
      },
      "properties": {
        "category": "university",
        "name": "THM Fachbereich Gesundheit",
        "marker-color": "#ff8040"
      }
    },
    {
      "type": "Feature",
      "geometry": {
        "type": "Point",
        "coordinates": [
          8.676212933587397,
          50.566728850000004
        ]
      },
      "properties": {
        "category": "university",
        "name": "Justus-Liebig-Universit\u00e4t Campusbereich Seltersberg",
        "marker-color": "#ff8040"
      }
    },
    {
      "type": "Feature",
      "geometry": {
        "type": "Point",
        "coordinates": [
          8.667410681153846,
          50.126791
        ]
      },
      "properties": {
        "category": "university",
        "name": "Johann-Wolfgang-Goethe-Universit\u00e4t Campus Westend",
        "marker-color": "#ff8040"
      }
    },
    {
      "type": "Feature",
      "geometry": {
        "type": "Point",
        "coordinates": [
          8.630728351530806,
          50.17232545
        ]
      },
      "properties": {
        "category": "university",
        "name": "Johann-Wolfgang-Goethe Universit\u00e4t - Campus Riedberg",
        "marker-color": "#ff8040"
      }
    },
    {
      "type": "Feature",
      "geometry": {
        "type": "Point",
        "coordinates": [
          8.657321040557996,
          49.876529649999995
        ]
      },
      "properties": {
        "category": "university",
        "name": "TU Darmstadt / S1",
        "marker-color": "#ff8040"
      }
    },
    {
      "type": "Feature",
      "geometry": {
        "type": "Point",
        "coordinates": [
          8.655188188288424,
          49.8779483
        ]
      },
      "properties": {
        "category": "university",
        "name": "TU Darmstadt / S2",
        "marker-color": "#ff8040"
      }
    },
    {
      "type": "Feature",
      "geometry": {
        "type": "Point",
        "coordinates": [
          8.5228599,
          50.55071285
        ]
      },
      "properties": {
        "category": "university",
        "name": "Technische Hochschule Mittelhessen (A15)",
        "marker-color": "#ff8040"
      }
    },
    {
      "type": "Feature",
      "geometry": {
        "type": "Point",
        "coordinates": [
          8.667037429682455,
          50.1266906
        ]
      },
      "properties": {
        "category": "university",
        "name": "Casino",
        "marker-color": "#ff8040"
      }
    },
    {
      "type": "Feature",
      "geometry": {
        "type": "Point",
        "coordinates": [
          8.678557250031197,
          49.85999895
        ]
      },
      "properties": {
        "category": "university",
        "name": "Anorganische Chemie",
        "marker-color": "#ff8040"
      }
    },
    {
      "type": "Feature",
      "geometry": {
        "type": "Point",
        "coordinates": [
          8.679610603229506,
          49.8614891
        ]
      },
      "properties": {
        "category": "university",
        "name": "Mensa Lichtwiese",
        "marker-color": "#ff8040"
      }
    },
    {
      "type": "Feature",
      "geometry": {
        "type": "Point",
        "coordinates": [
          8.678597115906967,
          49.859301450000004
        ]
      },
      "properties": {
        "category": "university",
        "name": "Entsorgungszentrum",
        "marker-color": "#ff8040"
      }
    },
    {
      "type": "Feature",
      "geometry": {
        "type": "Point",
        "coordinates": [
          8.67919810423464,
          49.86024585
        ]
      },
      "properties": {
        "category": "university",
        "name": "Physikalische Chemie",
        "marker-color": "#ff8040"
      }
    },
    {
      "type": "Feature",
      "geometry": {
        "type": "Point",
        "coordinates": [
          8.680194418349865,
          49.8602318
        ]
      },
      "properties": {
        "category": "university",
        "name": "Clemens-Sch\u00f6pf-Institut",
        "marker-color": "#ff8040"
      }
    },
    {
      "type": "Feature",
      "geometry": {
        "type": "Point",
        "coordinates": [
          8.681498793754445,
          49.860285649999994
        ]
      },
      "properties": {
        "category": "university",
        "name": "Materialwissenschaft",
        "marker-color": "#ff8040"
      }
    },
    {
      "type": "Feature",
      "geometry": {
        "type": "Point",
        "coordinates": [
          8.683652502098802,
          49.8622704
        ]
      },
      "properties": {
        "category": "university",
        "name": "Maschinenbauhalle 6",
        "marker-color": "#ff8040"
      }
    },
    {
      "type": "Feature",
      "geometry": {
        "type": "Point",
        "coordinates": [
          8.6415391666803,
          49.86655925
        ]
      },
      "properties": {
        "category": "university",
        "name": "FB Informatik (D15)",
        "marker-color": "#ff8040"
      }
    },
    {
      "type": "Feature",
      "geometry": {
        "type": "Point",
        "coordinates": [
          8.63995655191589,
          49.8666571
        ]
      },
      "properties": {
        "category": "university",
        "name": "EiT/Informatik/Rechenzentrum/Bibliothek (D10)",
        "marker-color": "#ff8040"
      }
    },
    {
      "type": "Feature",
      "geometry": {
        "type": "Point",
        "coordinates": [
          8.6799863,
          49.86046255
        ]
      },
      "properties": {
        "category": "university",
        "name": "Kekul\u00e9-Auditorium",
        "marker-color": "#ff8040"
      }
    },
    {
      "type": "Feature",
      "geometry": {
        "type": "Point",
        "coordinates": [
          9.4889938153432,
          51.304288150000005
        ]
      },
      "properties": {
        "category": "university",
        "name": "Kunsthochschule Kassel",
        "marker-color": "#ff8040"
      }
    },
    {
      "type": "Feature",
      "geometry": {
        "type": "Point",
        "coordinates": [
          8.6817520803618,
          50.5865722
        ]
      },
      "properties": {
        "category": "university",
        "name": "A13",
        "marker-color": "#ff8040"
      }
    },
    {
      "type": "Feature",
      "geometry": {
        "type": "Point",
        "coordinates": [
          8.682606397096283,
          50.58672155
        ]
      },
      "properties": {
        "category": "university",
        "name": "A12",
        "marker-color": "#ff8040"
      }
    },
    {
      "type": "Feature",
      "geometry": {
        "type": "Point",
        "coordinates": [
          8.681817993957843,
          50.587098850000004
        ]
      },
      "properties": {
        "category": "university",
        "name": "A20",
        "marker-color": "#ff8040"
      }
    },
    {
      "type": "Feature",
      "geometry": {
        "type": "Point",
        "coordinates": [
          8.682872234711088,
          50.58730765
        ]
      },
      "properties": {
        "category": "university",
        "name": "A21",
        "marker-color": "#ff8040"
      }
    },
    {
      "type": "Feature",
      "geometry": {
        "type": "Point",
        "coordinates": [
          8.682790753811965,
          50.5869644
        ]
      },
      "properties": {
        "category": "university",
        "name": "A11",
        "marker-color": "#ff8040"
      }
    },
    {
      "type": "Feature",
      "geometry": {
        "type": "Point",
        "coordinates": [
          8.683477236184899,
          50.586992699999996
        ]
      },
      "properties": {
        "category": "university",
        "name": "A",
        "marker-color": "#ff8040"
      }
    },
    {
      "type": "Feature",
      "geometry": {
        "type": "Point",
        "coordinates": [
          8.683394447585762,
          50.5865496
        ]
      },
      "properties": {
        "category": "university",
        "name": "A15",
        "marker-color": "#ff8040"
      }
    },
    {
      "type": "Feature",
      "geometry": {
        "type": "Point",
        "coordinates": [
          8.684394809721226,
          50.58626505
        ]
      },
      "properties": {
        "category": "university",
        "name": "C",
        "marker-color": "#ff8040"
      }
    },
    {
      "type": "Feature",
      "geometry": {
        "type": "Point",
        "coordinates": [
          8.684558653069132,
          50.5857716
        ]
      },
      "properties": {
        "category": "university",
        "name": "C14",
        "marker-color": "#ff8040"
      }
    },
    {
      "type": "Feature",
      "geometry": {
        "type": "Point",
        "coordinates": [
          8.654361867478578,
          49.879452099999995
        ]
      },
      "properties": {
        "category": "university",
        "name": "",
        "marker-color": "#ff8040"
      }
    },
    {
      "type": "Feature",
      "geometry": {
        "type": "Point",
        "coordinates": [
          8.678285809919668,
          50.5876258
        ]
      },
      "properties": {
        "category": "university",
        "name": "Zeughaus",
        "marker-color": "#ff8040"
      }
    },
    {
      "type": "Feature",
      "geometry": {
        "type": "Point",
        "coordinates": [
          8.6275798150409,
          49.873543749999996
        ]
      },
      "properties": {
        "category": "university",
        "name": "Evangelische Hochschule Darmstadt",
        "marker-color": "#ff8040"
      }
    },
    {
      "type": "Feature",
      "geometry": {
        "type": "Point",
        "coordinates": [
          8.683813639897775,
          49.86079145
        ]
      },
      "properties": {
        "category": "university",
        "name": "Maschinenbauhalle 2",
        "marker-color": "#ff8040"
      }
    },
    {
      "type": "Feature",
      "geometry": {
        "type": "Point",
        "coordinates": [
          8.68272169928852,
          49.861310200000005
        ]
      },
      "properties": {
        "category": "university",
        "name": "Maschinenbau Institutsgeb\u00e4ude",
        "marker-color": "#ff8040"
      }
    },
    {
      "type": "Feature",
      "geometry": {
        "type": "Point",
        "coordinates": [
          8.656914150224823,
          49.8787361
        ]
      },
      "properties": {
        "category": "university",
        "name": "",
        "marker-color": "#ff8040"
      }
    },
    {
      "type": "Feature",
      "geometry": {
        "type": "Point",
        "coordinates": [
          9.474229243398552,
          51.3113132
        ]
      },
      "properties": {
        "category": "university",
        "name": "Universit\u00e4t Kassel, Standort Wilhelmsh\u00f6her Allee",
        "marker-color": "#ff8040"
      }
    },
    {
      "type": "Feature",
      "geometry": {
        "type": "Point",
        "coordinates": [
          8.660364599999994,
          49.8754747
        ]
      },
      "properties": {
        "category": "university",
        "name": "IANUS / Normative Orders (Gelbes Haus)",
        "marker-color": "#ff8040"
      }
    },
    {
      "type": "Feature",
      "geometry": {
        "type": "Point",
        "coordinates": [
          8.683623350165508,
          49.86149625
        ]
      },
      "properties": {
        "category": "university",
        "name": "Maschinenbauhalle 1",
        "marker-color": "#ff8040"
      }
    },
    {
      "type": "Feature",
      "geometry": {
        "type": "Point",
        "coordinates": [
          8.684798249833293,
          49.8615274
        ]
      },
      "properties": {
        "category": "university",
        "name": "Maschinenbauhalle 5",
        "marker-color": "#ff8040"
      }
    },
    {
      "type": "Feature",
      "geometry": {
        "type": "Point",
        "coordinates": [
          8.68523935016431,
          49.8607947
        ]
      },
      "properties": {
        "category": "university",
        "name": "Maschinenbauhalle 3",
        "marker-color": "#ff8040"
      }
    },
    {
      "type": "Feature",
      "geometry": {
        "type": "Point",
        "coordinates": [
          8.6816681,
          49.862585800000005
        ]
      },
      "properties": {
        "category": "university",
        "name": "Forschungsgeb\u00e4ude 1",
        "marker-color": "#ff8040"
      }
    },
    {
      "type": "Feature",
      "geometry": {
        "type": "Point",
        "coordinates": [
          8.68101902093655,
          49.862634400000005
        ]
      },
      "properties": {
        "category": "university",
        "name": "Heizkraftwerk",
        "marker-color": "#ff8040"
      }
    },
    {
      "type": "Feature",
      "geometry": {
        "type": "Point",
        "coordinates": [
          8.678500574359504,
          49.8621091
        ]
      },
      "properties": {
        "category": "university",
        "name": "Bauingenieurwesen Instiutsgeb\u00e4ude 1",
        "marker-color": "#ff8040"
      }
    },
    {
      "type": "Feature",
      "geometry": {
        "type": "Point",
        "coordinates": [
          8.678522175142183,
          49.8628098
        ]
      },
      "properties": {
        "category": "university",
        "name": "Bauingenieurhalle 1",
        "marker-color": "#ff8040"
      }
    },
    {
      "type": "Feature",
      "geometry": {
        "type": "Point",
        "coordinates": [
          8.67807415,
          49.86320255
        ]
      },
      "properties": {
        "category": "university",
        "name": "Bauingenieurhalle 2",
        "marker-color": "#ff8040"
      }
    },
    {
      "type": "Feature",
      "geometry": {
        "type": "Point",
        "coordinates": [
          8.678082874861127,
          49.86293205
        ]
      },
      "properties": {
        "category": "university",
        "name": "Bauingenieurhalle 3",
        "marker-color": "#ff8040"
      }
    },
    {
      "type": "Feature",
      "geometry": {
        "type": "Point",
        "coordinates": [
          8.678089100000001,
          49.86265895
        ]
      },
      "properties": {
        "category": "university",
        "name": "Bauingenieurhalle 4",
        "marker-color": "#ff8040"
      }
    },
    {
      "type": "Feature",
      "geometry": {
        "type": "Point",
        "coordinates": [
          8.67995137502015,
          49.86228935
        ]
      },
      "properties": {
        "category": "university",
        "name": "Bauingenieurwesen Instiutsgeb\u00e4ude 2",
        "marker-color": "#ff8040"
      }
    },
    {
      "type": "Feature",
      "geometry": {
        "type": "Point",
        "coordinates": [
          8.67918194962699,
          49.86239795
        ]
      },
      "properties": {
        "category": "university",
        "name": "Bauingenieurhalle 5",
        "marker-color": "#ff8040"
      }
    },
    {
      "type": "Feature",
      "geometry": {
        "type": "Point",
        "coordinates": [
          8.679942265931228,
          49.8632283
        ]
      },
      "properties": {
        "category": "university",
        "name": "Wertstoffzentrum",
        "marker-color": "#ff8040"
      }
    },
    {
      "type": "Feature",
      "geometry": {
        "type": "Point",
        "coordinates": [
          8.63200141463568,
          49.8659268
        ]
      },
      "properties": {
        "category": "university",
        "name": "FB Wirtschaft (A10)",
        "marker-color": "#ff8040"
      }
    },
    {
      "type": "Feature",
      "geometry": {
        "type": "Point",
        "coordinates": [
          8.632496201683672,
          49.8659131
        ]
      },
      "properties": {
        "category": "university",
        "name": "Bistro Haardtring (A11)",
        "marker-color": "#ff8040"
      }
    },
    {
      "type": "Feature",
      "geometry": {
        "type": "Point",
        "coordinates": [
          8.633249300023213,
          49.86597915
        ]
      },
      "properties": {
        "category": "university",
        "name": "FB Bauingenieurwesen (A12)",
        "marker-color": "#ff8040"
      }
    },
    {
      "type": "Feature",
      "geometry": {
        "type": "Point",
        "coordinates": [
          8.633975000000001,
          49.866543449999995
        ]
      },
      "properties": {
        "category": "university",
        "name": "Kunststofftechnik - H\u00f6rs\u00e4le und B\u00fcros (A14)",
        "marker-color": "#ff8040"
      }
    },
    {
      "type": "Feature",
      "geometry": {
        "type": "Point",
        "coordinates": [
          8.633917870869297,
          49.8662809
        ]
      },
      "properties": {
        "category": "university",
        "name": "Kunststofftechnik Labor (A13)",
        "marker-color": "#ff8040"
      }
    },
    {
      "type": "Feature",
      "geometry": {
        "type": "Point",
        "coordinates": [
          8.63657030856362,
          49.867534
        ]
      },
      "properties": {
        "category": "university",
        "name": "FB Architektur (B10)",
        "marker-color": "#ff8040"
      }
    },
    {
      "type": "Feature",
      "geometry": {
        "type": "Point",
        "coordinates": [
          8.636108695164497,
          49.86788785
        ]
      },
      "properties": {
        "category": "university",
        "name": "",
        "marker-color": "#ff8040"
      }
    },
    {
      "type": "Feature",
      "geometry": {
        "type": "Point",
        "coordinates": [
          8.636131242529782,
          49.867284749999996
        ]
      },
      "properties": {
        "category": "university",
        "name": "",
        "marker-color": "#ff8040"
      }
    },
    {
      "type": "Feature",
      "geometry": {
        "type": "Point",
        "coordinates": [
          8.636610143360617,
          49.866758000000004
        ]
      },
      "properties": {
        "category": "university",
        "name": "Wasserbauhalle (B13)",
        "marker-color": "#ff8040"
      }
    },
    {
      "type": "Feature",
      "geometry": {
        "type": "Point",
        "coordinates": [
          8.637763666227894,
          49.86628975
        ]
      },
      "properties": {
        "category": "university",
        "name": "FB Maschinenbau und Kunststofftechnik (C12)",
        "marker-color": "#ff8040"
      }
    },
    {
      "type": "Feature",
      "geometry": {
        "type": "Point",
        "coordinates": [
          8.63895425212991,
          49.86624755
        ]
      },
      "properties": {
        "category": "university",
        "name": "",
        "marker-color": "#ff8040"
      }
    },
    {
      "type": "Feature",
      "geometry": {
        "type": "Point",
        "coordinates": [
          8.638862434783263,
          49.86649965
        ]
      },
      "properties": {
        "category": "university",
        "name": "",
        "marker-color": "#ff8040"
      }
    },
    {
      "type": "Feature",
      "geometry": {
        "type": "Point",
        "coordinates": [
          8.638791762115943,
          49.86674645
        ]
      },
      "properties": {
        "category": "university",
        "name": "",
        "marker-color": "#ff8040"
      }
    },
    {
      "type": "Feature",
      "geometry": {
        "type": "Point",
        "coordinates": [
          8.640494840188857,
          49.8666571
        ]
      },
      "properties": {
        "category": "university",
        "name": "EiT Labore (D11)",
        "marker-color": "#ff8040"
      }
    },
    {
      "type": "Feature",
      "geometry": {
        "type": "Point",
        "coordinates": [
          8.64057162418076,
          49.8671525
        ]
      },
      "properties": {
        "category": "university",
        "name": "EiT Hochspannungshalle (D12)",
        "marker-color": "#ff8040"
      }
    },
    {
      "type": "Feature",
      "geometry": {
        "type": "Point",
        "coordinates": [
          8.641142976418806,
          49.86653735
        ]
      },
      "properties": {
        "category": "university",
        "name": "EiT (D16)",
        "marker-color": "#ff8040"
      }
    },
    {
      "type": "Feature",
      "geometry": {
        "type": "Point",
        "coordinates": [
          8.640961956861558,
          49.8669645
        ]
      },
      "properties": {
        "category": "university",
        "name": "Lernzentrum (D17)",
        "marker-color": "#ff8040"
      }
    },
    {
      "type": "Feature",
      "geometry": {
        "type": "Point",
        "coordinates": [
          8.640848406377026,
          49.86731805
        ]
      },
      "properties": {
        "category": "university",
        "name": "",
        "marker-color": "#ff8040"
      }
    },
    {
      "type": "Feature",
      "geometry": {
        "type": "Point",
        "coordinates": [
          8.634137629647284,
          49.86625795
        ]
      },
      "properties": {
        "category": "university",
        "name": "Hochschule Darmstadt",
        "marker-color": "#ff8040"
      }
    },
    {
      "type": "Feature",
      "geometry": {
        "type": "Point",
        "coordinates": [
          8.639005163911971,
          49.8664978
        ]
      },
      "properties": {
        "category": "university",
        "name": "Hochschule Darmstadt",
        "marker-color": "#ff8040"
      }
    },
    {
      "type": "Feature",
      "geometry": {
        "type": "Point",
        "coordinates": [
          8.643613603444816,
          49.87080795
        ]
      },
      "properties": {
        "category": "university",
        "name": "FB Sozialp\u00e4dagogik",
        "marker-color": "#ff8040"
      }
    },
    {
      "type": "Feature",
      "geometry": {
        "type": "Point",
        "coordinates": [
          8.6433061,
          49.87030245
        ]
      },
      "properties": {
        "category": "university",
        "name": "",
        "marker-color": "#ff8040"
      }
    },
    {
      "type": "Feature",
      "geometry": {
        "type": "Point",
        "coordinates": [
          8.656021437661497,
          49.87829644999999
        ]
      },
      "properties": {
        "category": "university",
        "name": "Theoriezentrum Kernphysik",
        "marker-color": "#ff8040"
      }
    },
    {
      "type": "Feature",
      "geometry": {
        "type": "Point",
        "coordinates": [
          8.677608675434978,
          50.58777954999999
        ]
      },
      "properties": {
        "category": "university",
        "name": "Neues Schloss",
        "marker-color": "#ff8040"
      }
    },
    {
      "type": "Feature",
      "geometry": {
        "type": "Point",
        "coordinates": [
          8.80763282425907,
          50.8042228
        ]
      },
      "properties": {
        "category": "university",
        "name": "Biochemisch-Pharmakologisches Centrum Marburg",
        "marker-color": "#ff8040"
      }
    },
    {
      "type": "Feature",
      "geometry": {
        "type": "Point",
        "coordinates": [
          8.679735736985759,
          50.5871087
        ]
      },
      "properties": {
        "category": "university",
        "name": "Botanisches Institut",
        "marker-color": "#ff8040"
      }
    },
    {
      "type": "Feature",
      "geometry": {
        "type": "Point",
        "coordinates": [
          8.808596656137354,
          50.8017852
        ]
      },
      "properties": {
        "category": "university",
        "name": "Botanischer Garten",
        "marker-color": "#ff8040"
      }
    },
    {
      "type": "Feature",
      "geometry": {
        "type": "Point",
        "coordinates": [
          8.809223717381066,
          50.8060086
        ]
      },
      "properties": {
        "category": "university",
        "name": "",
        "marker-color": "#ff8040"
      }
    },
    {
      "type": "Feature",
      "geometry": {
        "type": "Point",
        "coordinates": [
          8.77991196675788,
          50.810288299999996
        ]
      },
      "properties": {
        "category": "university",
        "name": "Philosophische Fakult\u00e4t",
        "marker-color": "#ff8040"
      }
    },
    {
      "type": "Feature",
      "geometry": {
        "type": "Point",
        "coordinates": [
          8.77011742696325,
          50.8069945
        ]
      },
      "properties": {
        "category": "university",
        "name": "Savignyhaus",
        "marker-color": "#ff8040"
      }
    },
    {
      "type": "Feature",
      "geometry": {
        "type": "Point",
        "coordinates": [
          8.766096492669618,
          50.80644445
        ]
      },
      "properties": {
        "category": "university",
        "name": "WiWi-2",
        "marker-color": "#ff8040"
      }
    },
    {
      "type": "Feature",
      "geometry": {
        "type": "Point",
        "coordinates": [
          8.766987852770622,
          50.80698755
        ]
      },
      "properties": {
        "category": "university",
        "name": "WiWi-1",
        "marker-color": "#ff8040"
      }
    },
    {
      "type": "Feature",
      "geometry": {
        "type": "Point",
        "coordinates": [
          8.766708428030467,
          50.807145000000006
        ]
      },
      "properties": {
        "category": "university",
        "name": "WiWi-Pavillon",
        "marker-color": "#ff8040"
      }
    },
    {
      "type": "Feature",
      "geometry": {
        "type": "Point",
        "coordinates": [
          8.77087625287977,
          50.8075999
        ]
      },
      "properties": {
        "category": "university",
        "name": "Landgrafenhaus",
        "marker-color": "#ff8040"
      }
    },
    {
      "type": "Feature",
      "geometry": {
        "type": "Point",
        "coordinates": [
          9.448964826948867,
          51.28254855
        ]
      },
      "properties": {
        "category": "university",
        "name": "Universit\u00e4t Kassel, Heinrich-Plett-Stra\u00dfe",
        "marker-color": "#ff8040"
      }
    },
    {
      "type": "Feature",
      "geometry": {
        "type": "Point",
        "coordinates": [
          8.666882291165159,
          50.12715435
        ]
      },
      "properties": {
        "category": "university",
        "name": "Casino Anbau",
        "marker-color": "#ff8040"
      }
    },
    {
      "type": "Feature",
      "geometry": {
        "type": "Point",
        "coordinates": [
          8.589751713724258,
          49.8592414
        ]
      },
      "properties": {
        "category": "university",
        "name": "TU Darmstadt / Windkanal",
        "marker-color": "#ff8040"
      }
    },
    {
      "type": "Feature",
      "geometry": {
        "type": "Point",
        "coordinates": [
          8.666465819723769,
          50.1282933
        ]
      },
      "properties": {
        "category": "university",
        "name": "H\u00f6rsaalzentrum (HZ)",
        "marker-color": "#ff8040"
      }
    },
    {
      "type": "Feature",
      "geometry": {
        "type": "Point",
        "coordinates": [
          8.700469850207528,
          50.57338935
        ]
      },
      "properties": {
        "category": "university",
        "name": "F",
        "marker-color": "#ff8040"
      }
    },
    {
      "type": "Feature",
      "geometry": {
        "type": "Point",
        "coordinates": [
          8.698622154328525,
          50.57407605
        ]
      },
      "properties": {
        "category": "university",
        "name": "",
        "marker-color": "#ff8040"
      }
    },
    {
      "type": "Feature",
      "geometry": {
        "type": "Point",
        "coordinates": [
          8.702380118755299,
          50.5722899
        ]
      },
      "properties": {
        "category": "university",
        "name": "",
        "marker-color": "#ff8040"
      }
    },
    {
      "type": "Feature",
      "geometry": {
        "type": "Point",
        "coordinates": [
          8.70208015324324,
          50.572816
        ]
      },
      "properties": {
        "category": "university",
        "name": "",
        "marker-color": "#ff8040"
      }
    },
    {
      "type": "Feature",
      "geometry": {
        "type": "Point",
        "coordinates": [
          8.701983899999998,
          50.5725381
        ]
      },
      "properties": {
        "category": "university",
        "name": "Gew\u00e4chshaus",
        "marker-color": "#ff8040"
      }
    },
    {
      "type": "Feature",
      "geometry": {
        "type": "Point",
        "coordinates": [
          8.700908565749572,
          50.57248825
        ]
      },
      "properties": {
        "category": "university",
        "name": "D",
        "marker-color": "#ff8040"
      }
    },
    {
      "type": "Feature",
      "geometry": {
        "type": "Point",
        "coordinates": [
          8.6949638,
          50.5769042
        ]
      },
      "properties": {
        "category": "university",
        "name": "Gie\u00dfener Graduiertenzentrum Kulturwissenschaften",
        "marker-color": "#ff8040"
      }
    },
    {
      "type": "Feature",
      "geometry": {
        "type": "Point",
        "coordinates": [
          8.692836735981714,
          50.57692915
        ]
      },
      "properties": {
        "category": "university",
        "name": "",
        "marker-color": "#ff8040"
      }
    },
    {
      "type": "Feature",
      "geometry": {
        "type": "Point",
        "coordinates": [
          8.693752484676775,
          50.5766222
        ]
      },
      "properties": {
        "category": "university",
        "name": "A",
        "marker-color": "#ff8040"
      }
    },
    {
      "type": "Feature",
      "geometry": {
        "type": "Point",
        "coordinates": [
          8.65844171147441,
          50.126999299999994
        ]
      },
      "properties": {
        "category": "university",
        "name": "",
        "marker-color": "#ff8040"
      }
    },
    {
      "type": "Feature",
      "geometry": {
        "type": "Point",
        "coordinates": [
          8.776517419269695,
          50.80843195
        ]
      },
      "properties": {
        "category": "university",
        "name": "Studierendenhaus",
        "marker-color": "#ff8040"
      }
    },
    {
      "type": "Feature",
      "geometry": {
        "type": "Point",
        "coordinates": [
          8.662200829901114,
          50.5679356
        ]
      },
      "properties": {
        "category": "university",
        "name": "Analytische Chemie Haus 16",
        "marker-color": "#ff8040"
      }
    },
    {
      "type": "Feature",
      "geometry": {
        "type": "Point",
        "coordinates": [
          8.64961514254717,
          50.1170773
        ]
      },
      "properties": {
        "category": "university",
        "name": "Mathe-Turm",
        "marker-color": "#ff8040"
      }
    },
    {
      "type": "Feature",
      "geometry": {
        "type": "Point",
        "coordinates": [
          8.672676203776032,
          50.57120525
        ]
      },
      "properties": {
        "category": "university",
        "name": "Chemie I",
        "marker-color": "#ff8040"
      }
    },
    {
      "type": "Feature",
      "geometry": {
        "type": "Point",
        "coordinates": [
          8.674120806986576,
          50.5691134
        ]
      },
      "properties": {
        "category": "university",
        "name": "Institutsgeb\u00e4ude Physik",
        "marker-color": "#ff8040"
      }
    },
    {
      "type": "Feature",
      "geometry": {
        "type": "Point",
        "coordinates": [
          8.674178574163893,
          50.56886235
        ]
      },
      "properties": {
        "category": "university",
        "name": "Werkstattgeb\u00e4ude Physik",
        "marker-color": "#ff8040"
      }
    },
    {
      "type": "Feature",
      "geometry": {
        "type": "Point",
        "coordinates": [
          8.67394145650302,
          50.569517250000004
        ]
      },
      "properties": {
        "category": "university",
        "name": "H\u00f6rsaalgeb\u00e4ude Physik",
        "marker-color": "#ff8040"
      }
    },
    {
      "type": "Feature",
      "geometry": {
        "type": "Point",
        "coordinates": [
          8.672860533021327,
          50.569683350000005
        ]
      },
      "properties": {
        "category": "university",
        "name": "Interdiziplin\u00e4res Forschungszentrum (IFZ)",
        "marker-color": "#ff8040"
      }
    },
    {
      "type": "Feature",
      "geometry": {
        "type": "Point",
        "coordinates": [
          8.671452168981578,
          50.57092685
        ]
      },
      "properties": {
        "category": "university",
        "name": "Hochschulrechenzentrum",
        "marker-color": "#ff8040"
      }
    },
    {
      "type": "Feature",
      "geometry": {
        "type": "Point",
        "coordinates": [
          8.671935119769621,
          50.5713716
        ]
      },
      "properties": {
        "category": "university",
        "name": "Gr. Chemischer H\u00f6rsaal",
        "marker-color": "#ff8040"
      }
    },
    {
      "type": "Feature",
      "geometry": {
        "type": "Point",
        "coordinates": [
          8.671758077755062,
          50.5702611
        ]
      },
      "properties": {
        "category": "university",
        "name": "Carl-Vogt-Haus",
        "marker-color": "#ff8040"
      }
    },
    {
      "type": "Feature",
      "geometry": {
        "type": "Point",
        "coordinates": [
          8.699699373492983,
          50.5728709
        ]
      },
      "properties": {
        "category": "university",
        "name": "E",
        "marker-color": "#ff8040"
      }
    },
    {
      "type": "Feature",
      "geometry": {
        "type": "Point",
        "coordinates": [
          8.699621957610667,
          50.573739700000004
        ]
      },
      "properties": {
        "category": "university",
        "name": "G",
        "marker-color": "#ff8040"
      }
    },
    {
      "type": "Feature",
      "geometry": {
        "type": "Point",
        "coordinates": [
          8.758383967454286,
          50.3295977
        ]
      },
      "properties": {
        "category": "university",
        "name": "A5",
        "marker-color": "#ff8040"
      }
    },
    {
      "type": "Feature",
      "geometry": {
        "type": "Point",
        "coordinates": [
          8.757882889072032,
          50.3303064
        ]
      },
      "properties": {
        "category": "university",
        "name": "A7",
        "marker-color": "#ff8040"
      }
    },
    {
      "type": "Feature",
      "geometry": {
        "type": "Point",
        "coordinates": [
          8.69308217597029,
          50.58095415
        ]
      },
      "properties": {
        "category": "university",
        "name": "Seminargeb\u00e4ude",
        "marker-color": "#ff8040"
      }
    },
    {
      "type": "Feature",
      "geometry": {
        "type": "Point",
        "coordinates": [
          8.692451735603733,
          50.58134135
        ]
      },
      "properties": {
        "category": "university",
        "name": "",
        "marker-color": "#ff8040"
      }
    },
    {
      "type": "Feature",
      "geometry": {
        "type": "Point",
        "coordinates": [
          8.69274843078124,
          50.581678800000006
        ]
      },
      "properties": {
        "category": "university",
        "name": "",
        "marker-color": "#ff8040"
      }
    },
    {
      "type": "Feature",
      "geometry": {
        "type": "Point",
        "coordinates": [
          8.693763127796533,
          50.58113795
        ]
      },
      "properties": {
        "category": "university",
        "name": "",
        "marker-color": "#ff8040"
      }
    },
    {
      "type": "Feature",
      "geometry": {
        "type": "Point",
        "coordinates": [
          8.69391494680686,
          50.5814
        ]
      },
      "properties": {
        "category": "university",
        "name": "Dekanat Rechtswissenschaften",
        "marker-color": "#ff8040"
      }
    },
    {
      "type": "Feature",
      "geometry": {
        "type": "Point",
        "coordinates": [
          8.693815943387634,
          50.5812892
        ]
      },
      "properties": {
        "category": "university",
        "name": "",
        "marker-color": "#ff8040"
      }
    },
    {
      "type": "Feature",
      "geometry": {
        "type": "Point",
        "coordinates": [
          8.694345611454974,
          50.581872450000006
        ]
      },
      "properties": {
        "category": "university",
        "name": "Dekanat Wirtschaftswissenschaften",
        "marker-color": "#ff8040"
      }
    },
    {
      "type": "Feature",
      "geometry": {
        "type": "Point",
        "coordinates": [
          8.693431575482917,
          50.58184585
        ]
      },
      "properties": {
        "category": "university",
        "name": "",
        "marker-color": "#ff8040"
      }
    },
    {
      "type": "Feature",
      "geometry": {
        "type": "Point",
        "coordinates": [
          8.694772771925244,
          50.581318800000005
        ]
      },
      "properties": {
        "category": "university",
        "name": "",
        "marker-color": "#ff8040"
      }
    },
    {
      "type": "Feature",
      "geometry": {
        "type": "Point",
        "coordinates": [
          8.693100278947373,
          50.58207645
        ]
      },
      "properties": {
        "category": "university",
        "name": "Servicezentrum Studium und Pr\u00fcfungen",
        "marker-color": "#ff8040"
      }
    },
    {
      "type": "Feature",
      "geometry": {
        "type": "Point",
        "coordinates": [
          8.772233997582234,
          50.81268325
        ]
      },
      "properties": {
        "category": "university",
        "name": "Philipps-Universit\u00e4t Marburg - Campus Stadtmitte",
        "marker-color": "#ff8040"
      }
    },
    {
      "type": "Feature",
      "geometry": {
        "type": "Point",
        "coordinates": [
          8.767135554397017,
          50.80978184999999
        ]
      },
      "properties": {
        "category": "university",
        "name": "",
        "marker-color": "#ff8040"
      }
    },
    {
      "type": "Feature",
      "geometry": {
        "type": "Point",
        "coordinates": [
          8.780142355371128,
          50.80991725
        ]
      },
      "properties": {
        "category": "university",
        "name": "Philipps-Universit\u00e4t Marburg - Campus Geisteswissenschaften",
        "marker-color": "#ff8040"
      }
    },
    {
      "type": "Feature",
      "geometry": {
        "type": "Point",
        "coordinates": [
          8.680369054154891,
          49.85984585
        ]
      },
      "properties": {
        "category": "university",
        "name": "",
        "marker-color": "#ff8040"
      }
    },
    {
      "type": "Feature",
      "geometry": {
        "type": "Point",
        "coordinates": [
          8.680468950000002,
          49.85940555
        ]
      },
      "properties": {
        "category": "university",
        "name": "",
        "marker-color": "#ff8040"
      }
    },
    {
      "type": "Feature",
      "geometry": {
        "type": "Point",
        "coordinates": [
          8.664840418044577,
          50.5748153
        ]
      },
      "properties": {
        "category": "university",
        "name": "Psychatrie",
        "marker-color": "#ff8040"
      }
    },
    {
      "type": "Feature",
      "geometry": {
        "type": "Point",
        "coordinates": [
          8.672277312730193,
          50.56982485
        ]
      },
      "properties": {
        "category": "university",
        "name": "IFZ Biotechnikum",
        "marker-color": "#ff8040"
      }
    },
    {
      "type": "Feature",
      "geometry": {
        "type": "Point",
        "coordinates": [
          8.672554640533587,
          50.5692946
        ]
      },
      "properties": {
        "category": "university",
        "name": "IFZ Probenlager",
        "marker-color": "#ff8040"
      }
    },
    {
      "type": "Feature",
      "geometry": {
        "type": "Point",
        "coordinates": [
          8.67276175,
          50.56890105
        ]
      },
      "properties": {
        "category": "university",
        "name": "IFZ Werkstattgeb\u00e4ude Physik",
        "marker-color": "#ff8040"
      }
    },
    {
      "type": "Feature",
      "geometry": {
        "type": "Point",
        "coordinates": [
          8.673259724169629,
          50.5682838
        ]
      },
      "properties": {
        "category": "university",
        "name": "Stoffwechsellabor",
        "marker-color": "#ff8040"
      }
    },
    {
      "type": "Feature",
      "geometry": {
        "type": "Point",
        "coordinates": [
          8.6724231,
          50.567936700000004
        ]
      },
      "properties": {
        "category": "university",
        "name": "IFZ Forschungshalle",
        "marker-color": "#ff8040"
      }
    },
    {
      "type": "Feature",
      "geometry": {
        "type": "Point",
        "coordinates": [
          8.671883492305795,
          50.568719200000004
        ]
      },
      "properties": {
        "category": "university",
        "name": "Zoologie Tierhaus",
        "marker-color": "#ff8040"
      }
    },
    {
      "type": "Feature",
      "geometry": {
        "type": "Point",
        "coordinates": [
          8.673415425591095,
          50.571867
        ]
      },
      "properties": {
        "category": "university",
        "name": "Zwischenlager",
        "marker-color": "#ff8040"
      }
    },
    {
      "type": "Feature",
      "geometry": {
        "type": "Point",
        "coordinates": [
          8.701559774478117,
          50.58460975
        ]
      },
      "properties": {
        "category": "university",
        "name": "Sportzentrum/Institutsgeb\u00e4ude",
        "marker-color": "#ff8040"
      }
    },
    {
      "type": "Feature",
      "geometry": {
        "type": "Point",
        "coordinates": [
          8.766410133074583,
          50.807474850000006
        ]
      },
      "properties": {
        "category": "university",
        "name": "",
        "marker-color": "#ff8040"
      }
    },
    {
      "type": "Feature",
      "geometry": {
        "type": "Point",
        "coordinates": [
          8.775207902961778,
          50.8032253
        ]
      },
      "properties": {
        "category": "university",
        "name": "Sporthalle",
        "marker-color": "#ff8040"
      }
    },
    {
      "type": "Feature",
      "geometry": {
        "type": "Point",
        "coordinates": [
          8.766612630496455,
          50.807726200000005
        ]
      },
      "properties": {
        "category": "university",
        "name": "Institut f\u00fcr Sportwissenschaft & Motologie",
        "marker-color": "#ff8040"
      }
    },
    {
      "type": "Feature",
      "geometry": {
        "type": "Point",
        "coordinates": [
          8.765957076578275,
          50.8082325
        ]
      },
      "properties": {
        "category": "university",
        "name": "Kugelhaus",
        "marker-color": "#ff8040"
      }
    },
    {
      "type": "Feature",
      "geometry": {
        "type": "Point",
        "coordinates": [
          8.768772071009732,
          50.80979175
        ]
      },
      "properties": {
        "category": "university",
        "name": "Altes Landgericht",
        "marker-color": "#ff8040"
      }
    },
    {
      "type": "Feature",
      "geometry": {
        "type": "Point",
        "coordinates": [
          8.658605827644788,
          50.5738711
        ]
      },
      "properties": {
        "category": "university",
        "name": "Justus-Liebig-Universit\u00e4t Campusbereich Seltersberg/Veterin\u00e4rmedizin",
        "marker-color": "#ff8040"
      }
    },
    {
      "type": "Feature",
      "geometry": {
        "type": "Point",
        "coordinates": [
          8.670400231671586,
          50.57370435
        ]
      },
      "properties": {
        "category": "university",
        "name": "Justus-Liebig-Universit\u00e4t Mathematisches Institut",
        "marker-color": "#ff8040"
      }
    },
    {
      "type": "Feature",
      "geometry": {
        "type": "Point",
        "coordinates": [
          8.773065749590035,
          50.8144098
        ]
      },
      "properties": {
        "category": "university",
        "name": "Institut f\u00fcr Medizinische Biometrie und Epidemiologie (IMBE)",
        "marker-color": "#ff8040"
      }
    },
    {
      "type": "Feature",
      "geometry": {
        "type": "Point",
        "coordinates": [
          8.659462608620684,
          50.57405704999999
        ]
      },
      "properties": {
        "category": "university",
        "name": "Dekanat Veterin\u00e4rmedizin",
        "marker-color": "#ff8040"
      }
    },
    {
      "type": "Feature",
      "geometry": {
        "type": "Point",
        "coordinates": [
          8.660026602816092,
          50.5741117
        ]
      },
      "properties": {
        "category": "university",
        "name": "Institut 1. Tier\u00e4rztliche Nahrungsmittelkunde",
        "marker-color": "#ff8040"
      }
    },
    {
      "type": "Feature",
      "geometry": {
        "type": "Point",
        "coordinates": [
          8.659002108293347,
          50.5745862
        ]
      },
      "properties": {
        "category": "university",
        "name": "Chirurgische Veterin\u00e4rklinik",
        "marker-color": "#ff8040"
      }
    },
    {
      "type": "Feature",
      "geometry": {
        "type": "Point",
        "coordinates": [
          8.65858064912935,
          50.573969149999996
        ]
      },
      "properties": {
        "category": "university",
        "name": "Medizinische Veterin\u00e4rklinik",
        "marker-color": "#ff8040"
      }
    },
    {
      "type": "Feature",
      "geometry": {
        "type": "Point",
        "coordinates": [
          8.657880599999995,
          50.574148449999996
        ]
      },
      "properties": {
        "category": "university",
        "name": "Kleintierklinik/Klinikgeb\u00e4ude",
        "marker-color": "#ff8040"
      }
    },
    {
      "type": "Feature",
      "geometry": {
        "type": "Point",
        "coordinates": [
          8.658337045143274,
          50.574945650000004
        ]
      },
      "properties": {
        "category": "university",
        "name": "Lehrschmiede",
        "marker-color": "#ff8040"
      }
    },
    {
      "type": "Feature",
      "geometry": {
        "type": "Point",
        "coordinates": [
          8.660318219576169,
          50.57308245
        ]
      },
      "properties": {
        "category": "university",
        "name": "",
        "marker-color": "#ff8040"
      }
    },
    {
      "type": "Feature",
      "geometry": {
        "type": "Point",
        "coordinates": [
          8.771284465988792,
          50.8147221
        ]
      },
      "properties": {
        "category": "university",
        "name": "",
        "marker-color": "#ff8040"
      }
    },
    {
      "type": "Feature",
      "geometry": {
        "type": "Point",
        "coordinates": [
          8.770444543999446,
          50.814261
        ]
      },
      "properties": {
        "category": "university",
        "name": "Physiologie",
        "marker-color": "#ff8040"
      }
    },
    {
      "type": "Feature",
      "geometry": {
        "type": "Point",
        "coordinates": [
          8.772625060454118,
          50.81463465
        ]
      },
      "properties": {
        "category": "university",
        "name": "",
        "marker-color": "#ff8040"
      }
    },
    {
      "type": "Feature",
      "geometry": {
        "type": "Point",
        "coordinates": [
          8.677102999999999,
          49.860538649999995
        ]
      },
      "properties": {
        "category": "university",
        "name": "Solar Decathlon Geb\u00e4ude 2007",
        "marker-color": "#ff8040"
      }
    },
    {
      "type": "Feature",
      "geometry": {
        "type": "Point",
        "coordinates": [
          8.625436185833347,
          49.87125935
        ]
      },
      "properties": {
        "category": "university",
        "name": "TIZ",
        "marker-color": "#ff8040"
      }
    },
    {
      "type": "Feature",
      "geometry": {
        "type": "Point",
        "coordinates": [
          8.659586569707105,
          49.8755709
        ]
      },
      "properties": {
        "category": "university",
        "name": "Psychologie",
        "marker-color": "#ff8040"
      }
    },
    {
      "type": "Feature",
      "geometry": {
        "type": "Point",
        "coordinates": [
          8.770943207708845,
          50.8166753
        ]
      },
      "properties": {
        "category": "university",
        "name": "Zytobiologie",
        "marker-color": "#ff8040"
      }
    },
    {
      "type": "Feature",
      "geometry": {
        "type": "Point",
        "coordinates": [
          8.771320386486263,
          50.8158923
        ]
      },
      "properties": {
        "category": "university",
        "name": "Anatomie",
        "marker-color": "#ff8040"
      }
    },
    {
      "type": "Feature",
      "geometry": {
        "type": "Point",
        "coordinates": [
          8.771210340969652,
          50.81626865
        ]
      },
      "properties": {
        "category": "university",
        "name": "Zytobiologie",
        "marker-color": "#ff8040"
      }
    },
    {
      "type": "Feature",
      "geometry": {
        "type": "Point",
        "coordinates": [
          8.77808545579467,
          50.80395565
        ]
      },
      "properties": {
        "category": "university",
        "name": "Erziehungswissenschaften",
        "marker-color": "#ff8040"
      }
    },
    {
      "type": "Feature",
      "geometry": {
        "type": "Point",
        "coordinates": [
          8.768847679821803,
          50.811262
        ]
      },
      "properties": {
        "category": "university",
        "name": "Fachbereich Physik",
        "marker-color": "#ff8040"
      }
    },
    {
      "type": "Feature",
      "geometry": {
        "type": "Point",
        "coordinates": [
          8.76851675,
          50.8132752
        ]
      },
      "properties": {
        "category": "university",
        "name": "Geschichte der Pharmazie",
        "marker-color": "#ff8040"
      }
    },
    {
      "type": "Feature",
      "geometry": {
        "type": "Point",
        "coordinates": [
          8.767816598214338,
          50.8146241
        ]
      },
      "properties": {
        "category": "university",
        "name": "Soziologie",
        "marker-color": "#ff8040"
      }
    },
    {
      "type": "Feature",
      "geometry": {
        "type": "Point",
        "coordinates": [
          8.693162855604939,
          50.57316365
        ]
      },
      "properties": {
        "category": "university",
        "name": "Freie Theologische Hochschule Gie\u00dfen",
        "marker-color": "#ff8040"
      }
    },
    {
      "type": "Feature",
      "geometry": {
        "type": "Point",
        "coordinates": [
          8.678812371965973,
          50.5863289
        ]
      },
      "properties": {
        "category": "university",
        "name": "",
        "marker-color": "#ff8040"
      }
    },
    {
      "type": "Feature",
      "geometry": {
        "type": "Point",
        "coordinates": [
          8.678369684348898,
          50.586477099999996
        ]
      },
      "properties": {
        "category": "university",
        "name": "",
        "marker-color": "#ff8040"
      }
    },
    {
      "type": "Feature",
      "geometry": {
        "type": "Point",
        "coordinates": [
          8.677152950000004,
          50.587383349999996
        ]
      },
      "properties": {
        "category": "university",
        "name": "",
        "marker-color": "#ff8040"
      }
    },
    {
      "type": "Feature",
      "geometry": {
        "type": "Point",
        "coordinates": [
          8.677214649999996,
          50.587408350000004
        ]
      },
      "properties": {
        "category": "university",
        "name": "",
        "marker-color": "#ff8040"
      }
    },
    {
      "type": "Feature",
      "geometry": {
        "type": "Point",
        "coordinates": [
          8.677413345312448,
          50.5872285
        ]
      },
      "properties": {
        "category": "university",
        "name": "",
        "marker-color": "#ff8040"
      }
    },
    {
      "type": "Feature",
      "geometry": {
        "type": "Point",
        "coordinates": [
          8.67812042655206,
          50.58671055000001
        ]
      },
      "properties": {
        "category": "university",
        "name": "",
        "marker-color": "#ff8040"
      }
    },
    {
      "type": "Feature",
      "geometry": {
        "type": "Point",
        "coordinates": [
          8.681480834105407,
          50.5620598
        ]
      },
      "properties": {
        "category": "university",
        "name": "Strahlenzentrum",
        "marker-color": "#ff8040"
      }
    },
    {
      "type": "Feature",
      "geometry": {
        "type": "Point",
        "coordinates": [
          8.631265141183036,
          50.17353155
        ]
      },
      "properties": {
        "category": "university",
        "name": "G\u00e4stewohnhaus",
        "marker-color": "#ff8040"
      }
    },
    {
      "type": "Feature",
      "geometry": {
        "type": "Point",
        "coordinates": [
          8.694913296420209,
          50.5714057
        ]
      },
      "properties": {
        "category": "university",
        "name": "Akademisches Pr\u00fcfungsamt Geisteswissenschaften",
        "marker-color": "#ff8040"
      }
    },
    {
      "type": "Feature",
      "geometry": {
        "type": "Point",
        "coordinates": [
          9.503106430071568,
          51.321850600000005
        ]
      },
      "properties": {
        "category": "university",
        "name": "FB 6 Architektur, Stadtplanung, Landschaftsplanung",
        "marker-color": "#ff8040"
      }
    },
    {
      "type": "Feature",
      "geometry": {
        "type": "Point",
        "coordinates": [
          9.50645318425835,
          51.32331945
        ]
      },
      "properties": {
        "category": "university",
        "name": "Universit\u00e4t Kassel - Campus Holl\u00e4ndischer Platz",
        "marker-color": "#ff8040"
      }
    },
    {
      "type": "Feature",
      "geometry": {
        "type": "Point",
        "coordinates": [
          8.049261037819106,
          50.01237665
        ]
      },
      "properties": {
        "category": "university",
        "name": "Walther-Leisler-Kiep-Center",
        "marker-color": "#ff8040"
      }
    },
    {
      "type": "Feature",
      "geometry": {
        "type": "Point",
        "coordinates": [
          8.050227141906422,
          50.012096799999995
        ]
      },
      "properties": {
        "category": "university",
        "name": "",
        "marker-color": "#ff8040"
      }
    },
    {
      "type": "Feature",
      "geometry": {
        "type": "Point",
        "coordinates": [
          8.04941956586616,
          50.012248150000005
        ]
      },
      "properties": {
        "category": "university",
        "name": "European Business School",
        "marker-color": "#ff8040"
      }
    },
    {
      "type": "Feature",
      "geometry": {
        "type": "Point",
        "coordinates": [
          8.050039492159918,
          50.012771799999996
        ]
      },
      "properties": {
        "category": "university",
        "name": "",
        "marker-color": "#ff8040"
      }
    },
    {
      "type": "Feature",
      "geometry": {
        "type": "Point",
        "coordinates": [
          8.677167526562341,
          50.580410549999996
        ]
      },
      "properties": {
        "category": "university",
        "name": "Hauptgeb\u00e4ude Justus-Liebig-Universit\u00e4t",
        "marker-color": "#ff8040"
      }
    },
    {
      "type": "Feature",
      "geometry": {
        "type": "Point",
        "coordinates": [
          8.677754563146433,
          50.5798239
        ]
      },
      "properties": {
        "category": "university",
        "name": "Alte Physik",
        "marker-color": "#ff8040"
      }
    },
    {
      "type": "Feature",
      "geometry": {
        "type": "Point",
        "coordinates": [
          8.677904523638718,
          50.57875185
        ]
      },
      "properties": {
        "category": "university",
        "name": "Erwin-Stein-Geb\u00e4ude",
        "marker-color": "#ff8040"
      }
    },
    {
      "type": "Feature",
      "geometry": {
        "type": "Point",
        "coordinates": [
          8.63363125,
          50.17306275
        ]
      },
      "properties": {
        "category": "university",
        "name": "",
        "marker-color": "#ff8040"
      }
    },
    {
      "type": "Feature",
      "geometry": {
        "type": "Point",
        "coordinates": [
          9.679351455659681,
          50.5552784
        ]
      },
      "properties": {
        "category": "university",
        "name": "Studentenwohnheim Altes Finanzamt",
        "marker-color": "#ff8040"
      }
    },
    {
      "type": "Feature",
      "geometry": {
        "type": "Point",
        "coordinates": [
          8.681601265854868,
          50.589741149999995
        ]
      },
      "properties": {
        "category": "university",
        "name": "D10",
        "marker-color": "#ff8040"
      }
    },
    {
      "type": "Feature",
      "geometry": {
        "type": "Point",
        "coordinates": [
          8.681256895984195,
          49.868987000000004
        ]
      },
      "properties": {
        "category": "university",
        "name": "TU Darmstadt / Botanischer Garten",
        "marker-color": "#ff8040"
      }
    },
    {
      "type": "Feature",
      "geometry": {
        "type": "Point",
        "coordinates": [
          8.048315427722923,
          50.01226065
        ]
      },
      "properties": {
        "category": "university",
        "name": "",
        "marker-color": "#ff8040"
      }
    },
    {
      "type": "Feature",
      "geometry": {
        "type": "Point",
        "coordinates": [
          8.669867953201056,
          50.126251350000004
        ]
      },
      "properties": {
        "category": "university",
        "name": "I.G.-Farben Nebengeb\u00e4ude (NG)",
        "marker-color": "#ff8040"
      }
    },
    {
      "type": "Feature",
      "geometry": {
        "type": "Point",
        "coordinates": [
          8.62758368747803,
          49.8741395
        ]
      },
      "properties": {
        "category": "university",
        "name": "",
        "marker-color": "#ff8040"
      }
    },
    {
      "type": "Feature",
      "geometry": {
        "type": "Point",
        "coordinates": [
          8.62727158760396,
          49.874141300000005
        ]
      },
      "properties": {
        "category": "university",
        "name": "",
        "marker-color": "#ff8040"
      }
    },
    {
      "type": "Feature",
      "geometry": {
        "type": "Point",
        "coordinates": [
          8.627502611259166,
          49.8735065
        ]
      },
      "properties": {
        "category": "university",
        "name": "",
        "marker-color": "#ff8040"
      }
    },
    {
      "type": "Feature",
      "geometry": {
        "type": "Point",
        "coordinates": [
          8.632308675840147,
          50.17281305
        ]
      },
      "properties": {
        "category": "university",
        "name": "N161",
        "marker-color": "#ff8040"
      }
    },
    {
      "type": "Feature",
      "geometry": {
        "type": "Point",
        "coordinates": [
          8.679912089352118,
          50.584707800000004
        ]
      },
      "properties": {
        "category": "university",
        "name": "B13",
        "marker-color": "#ff8040"
      }
    },
    {
      "type": "Feature",
      "geometry": {
        "type": "Point",
        "coordinates": [
          8.6804992184126,
          50.5853115
        ]
      },
      "properties": {
        "category": "university",
        "name": "B11",
        "marker-color": "#ff8040"
      }
    },
    {
      "type": "Feature",
      "geometry": {
        "type": "Point",
        "coordinates": [
          8.65027042013889,
          50.1170531
        ]
      },
      "properties": {
        "category": "university",
        "name": "Mathe-Geb\u00e4ude",
        "marker-color": "#ff8040"
      }
    },
    {
      "type": "Feature",
      "geometry": {
        "type": "Point",
        "coordinates": [
          8.650941157552083,
          50.1170216
        ]
      },
      "properties": {
        "category": "university",
        "name": "Altes Physikgeb\u00e4ude",
        "marker-color": "#ff8040"
      }
    },
    {
      "type": "Feature",
      "geometry": {
        "type": "Point",
        "coordinates": [
          8.215868825324678,
          50.098236850000006
        ]
      },
      "properties": {
        "category": "university",
        "name": "",
        "marker-color": "#ff8040"
      }
    },
    {
      "type": "Feature",
      "geometry": {
        "type": "Point",
        "coordinates": [
          8.216220957070217,
          50.09760145
        ]
      },
      "properties": {
        "category": "university",
        "name": "Hochschule RheinMain",
        "marker-color": "#ff8040"
      }
    },
    {
      "type": "Feature",
      "geometry": {
        "type": "Point",
        "coordinates": [
          8.99770912867054,
          50.539779550000006
        ]
      },
      "properties": {
        "category": "university",
        "name": "Laubach-Kolleg Oberstufengymnasium",
        "marker-color": "#ff8040"
      }
    },
    {
      "type": "Feature",
      "geometry": {
        "type": "Point",
        "coordinates": [
          8.998530902000486,
          50.54020035
        ]
      },
      "properties": {
        "category": "university",
        "name": "Laubach-Kolleg Oberstufengymnasium",
        "marker-color": "#ff8040"
      }
    },
    {
      "type": "Feature",
      "geometry": {
        "type": "Point",
        "coordinates": [
          8.999328123683439,
          50.539912799999996
        ]
      },
      "properties": {
        "category": "university",
        "name": "Laubach-Kolleg Oberstufengymnasium",
        "marker-color": "#ff8040"
      }
    },
    {
      "type": "Feature",
      "geometry": {
        "type": "Point",
        "coordinates": [
          8.675729905041791,
          50.10222805
        ]
      },
      "properties": {
        "category": "university",
        "name": "",
        "marker-color": "#ff8040"
      }
    },
    {
      "type": "Feature",
      "geometry": {
        "type": "Point",
        "coordinates": [
          8.65738557586554,
          50.57372565
        ]
      },
      "properties": {
        "category": "university",
        "name": "Bereichswerkstatt Veterin\u00e4rmedizin",
        "marker-color": "#ff8040"
      }
    },
    {
      "type": "Feature",
      "geometry": {
        "type": "Point",
        "coordinates": [
          8.658206674045356,
          50.573321199999995
        ]
      },
      "properties": {
        "category": "university",
        "name": "Veterin\u00e4rphysiologisches Institut",
        "marker-color": "#ff8040"
      }
    },
    {
      "type": "Feature",
      "geometry": {
        "type": "Point",
        "coordinates": [
          8.659471155966466,
          50.57370455
        ]
      },
      "properties": {
        "category": "university",
        "name": "Veterin\u00e4rpathologisches Institut",
        "marker-color": "#ff8040"
      }
    },
    {
      "type": "Feature",
      "geometry": {
        "type": "Point",
        "coordinates": [
          8.65845568643931,
          50.5747534
        ]
      },
      "properties": {
        "category": "university",
        "name": "Chirurgische Hundeklinik",
        "marker-color": "#ff8040"
      }
    },
    {
      "type": "Feature",
      "geometry": {
        "type": "Point",
        "coordinates": [
          8.65769827282141,
          50.57434205
        ]
      },
      "properties": {
        "category": "university",
        "name": "Kleintierklinik/Stallgeb\u00e4ude",
        "marker-color": "#ff8040"
      }
    },
    {
      "type": "Feature",
      "geometry": {
        "type": "Point",
        "coordinates": [
          8.658590000000004,
          50.5744528
        ]
      },
      "properties": {
        "category": "university",
        "name": "",
        "marker-color": "#ff8040"
      }
    },
    {
      "type": "Feature",
      "geometry": {
        "type": "Point",
        "coordinates": [
          8.6592695,
          50.57357675
        ]
      },
      "properties": {
        "category": "university",
        "name": "",
        "marker-color": "#ff8040"
      }
    },
    {
      "type": "Feature",
      "geometry": {
        "type": "Point",
        "coordinates": [
          8.65896906200906,
          50.57340495
        ]
      },
      "properties": {
        "category": "university",
        "name": "",
        "marker-color": "#ff8040"
      }
    },
    {
      "type": "Feature",
      "geometry": {
        "type": "Point",
        "coordinates": [
          8.660345653537084,
          50.57339305
        ]
      },
      "properties": {
        "category": "university",
        "name": "Tierstall und Chemikalienlager",
        "marker-color": "#ff8040"
      }
    },
    {
      "type": "Feature",
      "geometry": {
        "type": "Point",
        "coordinates": [
          8.658800314696322,
          50.5734864
        ]
      },
      "properties": {
        "category": "university",
        "name": "",
        "marker-color": "#ff8040"
      }
    },
    {
      "type": "Feature",
      "geometry": {
        "type": "Point",
        "coordinates": [
          8.658627696164086,
          50.573323
        ]
      },
      "properties": {
        "category": "university",
        "name": "Container",
        "marker-color": "#ff8040"
      }
    },
    {
      "type": "Feature",
      "geometry": {
        "type": "Point",
        "coordinates": [
          8.65903037155986,
          50.573811750000004
        ]
      },
      "properties": {
        "category": "university",
        "name": "Veterin\u00e4ranatomisches Institut",
        "marker-color": "#ff8040"
      }
    },
    {
      "type": "Feature",
      "geometry": {
        "type": "Point",
        "coordinates": [
          8.658494449999996,
          50.574373699999995
        ]
      },
      "properties": {
        "category": "university",
        "name": "Heulager / Schuppen",
        "marker-color": "#ff8040"
      }
    },
    {
      "type": "Feature",
      "geometry": {
        "type": "Point",
        "coordinates": [
          8.659077695027623,
          50.57346255
        ]
      },
      "properties": {
        "category": "university",
        "name": "",
        "marker-color": "#ff8040"
      }
    },
    {
      "type": "Feature",
      "geometry": {
        "type": "Point",
        "coordinates": [
          8.658656126091465,
          50.57437925
        ]
      },
      "properties": {
        "category": "university",
        "name": "Pferdeboxen",
        "marker-color": "#ff8040"
      }
    },
    {
      "type": "Feature",
      "geometry": {
        "type": "Point",
        "coordinates": [
          8.658885450028802,
          50.5733544
        ]
      },
      "properties": {
        "category": "university",
        "name": "",
        "marker-color": "#ff8040"
      }
    },
    {
      "type": "Feature",
      "geometry": {
        "type": "Point",
        "coordinates": [
          8.6588376,
          50.5732126
        ]
      },
      "properties": {
        "category": "university",
        "name": "EU-Zuchtstation",
        "marker-color": "#ff8040"
      }
    },
    {
      "type": "Feature",
      "geometry": {
        "type": "Point",
        "coordinates": [
          8.216925865779157,
          50.09686845
        ]
      },
      "properties": {
        "category": "university",
        "name": "Hochschule RheinMain",
        "marker-color": "#ff8040"
      }
    },
    {
      "type": "Feature",
      "geometry": {
        "type": "Point",
        "coordinates": [
          8.217256118061737,
          50.096608700000004
        ]
      },
      "properties": {
        "category": "university",
        "name": "",
        "marker-color": "#ff8040"
      }
    },
    {
      "type": "Feature",
      "geometry": {
        "type": "Point",
        "coordinates": [
          8.669343351259943,
          50.129348300000004
        ]
      },
      "properties": {
        "category": "university",
        "name": "Normative Ordnungen",
        "marker-color": "#ff8040"
      }
    },
    {
      "type": "Feature",
      "geometry": {
        "type": "Point",
        "coordinates": [
          8.6840217162486,
          50.58541565
        ]
      },
      "properties": {
        "category": "university",
        "name": "C13",
        "marker-color": "#ff8040"
      }
    },
    {
      "type": "Feature",
      "geometry": {
        "type": "Point",
        "coordinates": [
          8.683464443988974,
          50.58568565
        ]
      },
      "properties": {
        "category": "university",
        "name": "C21",
        "marker-color": "#ff8040"
      }
    },
    {
      "type": "Feature",
      "geometry": {
        "type": "Point",
        "coordinates": [
          8.681485301956688,
          50.59000075
        ]
      },
      "properties": {
        "category": "university",
        "name": "D11",
        "marker-color": "#ff8040"
      }
    },
    {
      "type": "Feature",
      "geometry": {
        "type": "Point",
        "coordinates": [
          9.644545344958363,
          51.428349
        ]
      },
      "properties": {
        "category": "university",
        "name": "Polizeiakademie Niedersachsen",
        "marker-color": "#ff8040"
      }
    },
    {
      "type": "Feature",
      "geometry": {
        "type": "Point",
        "coordinates": [
          8.66704305,
          50.57137125
        ]
      },
      "properties": {
        "category": "university",
        "name": "Physiologisches Institut",
        "marker-color": "#ff8040"
      }
    },
    {
      "type": "Feature",
      "geometry": {
        "type": "Point",
        "coordinates": [
          8.676569224621208,
          50.5830864
        ]
      },
      "properties": {
        "category": "university",
        "name": "E10",
        "marker-color": "#ff8040"
      }
    },
    {
      "type": "Feature",
      "geometry": {
        "type": "Point",
        "coordinates": [
          8.658852099999994,
          50.57428095
        ]
      },
      "properties": {
        "category": "university",
        "name": "Reithalle",
        "marker-color": "#ff8040"
      }
    },
    {
      "type": "Feature",
      "geometry": {
        "type": "Point",
        "coordinates": [
          8.230648197606422,
          50.080347
        ]
      },
      "properties": {
        "category": "university",
        "name": "Wiesbaden Business School",
        "marker-color": "#ff8040"
      }
    },
    {
      "type": "Feature",
      "geometry": {
        "type": "Point",
        "coordinates": [
          8.728247399520122,
          50.573655200000005
        ]
      },
      "properties": {
        "category": "university",
        "name": "",
        "marker-color": "#ff8040"
      }
    },
    {
      "type": "Feature",
      "geometry": {
        "type": "Point",
        "coordinates": [
          8.68094138275902,
          50.579631649999996
        ]
      },
      "properties": {
        "category": "university",
        "name": "Alte UB / B\u00fccherturm",
        "marker-color": "#ff8040"
      }
    },
    {
      "type": "Feature",
      "geometry": {
        "type": "Point",
        "coordinates": [
          8.680513995250635,
          50.57938885
        ]
      },
      "properties": {
        "category": "university",
        "name": "Alte UB",
        "marker-color": "#ff8040"
      }
    },
    {
      "type": "Feature",
      "geometry": {
        "type": "Point",
        "coordinates": [
          8.680539495442781,
          50.5797656
        ]
      },
      "properties": {
        "category": "university",
        "name": "Alte UB",
        "marker-color": "#ff8040"
      }
    },
    {
      "type": "Feature",
      "geometry": {
        "type": "Point",
        "coordinates": [
          8.66600809285714,
          50.5708316
        ]
      },
      "properties": {
        "category": "university",
        "name": "Biomedizinisches Forschungszentrum Seltersberg",
        "marker-color": "#ff8040"
      }
    },
    {
      "type": "Feature",
      "geometry": {
        "type": "Point",
        "coordinates": [
          8.664900129708457,
          50.5720024
        ]
      },
      "properties": {
        "category": "university",
        "name": "Seltersberg Haus C",
        "marker-color": "#ff8040"
      }
    },
    {
      "type": "Feature",
      "geometry": {
        "type": "Point",
        "coordinates": [
          8.665732535576923,
          50.1238805
        ]
      },